7,,28,8,255,,31,,215,*47
$GPAPB,,,,,,,,,,,,,,*44
$GPGLL,2721.0241,S,1303.2849,E,042108,V*2D
$GPRMB,,,,,,,,,,,,,*66
$GPRMC,042108,V,2721.0241,S,15303.2849,E,0.0,188.0,261100,11.3,E*47
$GPGGA,042108,2721.0241,S,15303.2849,E,0,0,0.80,0,M,,,,*16
$GPGSA,A,1,,,,,,,,,,,,,1.69,0.80,1.49*0A
$GPGSV,3,1,12,23,56,170,,17,47,113,,21,47,259,,15,43,210,*74
$GPGSV,3,2,12,29,33,342,,3,32,230,,6,23,21,,26,14,140,*46
$GPGSV,3,3,12,9,12,87,,22,10,287,,28,8,255,,31,,215,*47
$GPAPB,,,,,,,,,,,,,,*44
$GPGLL,4719.0775,S,5306.6840,E,042323,V*28
$GPRMB,,,,,,,,,,,,,*66
$GPRMC,042109,V,2721.0241,S,15303.2849,E,0.0,188.0,261100,11.3,E*46
$GPGGA,042109,2721.0241,S,15303.2849,E,0,0,0.80,0,M,,,,*17
$GPGSA,A,1,,,,,,,,,,,,,1.69,0.80,1.49*0A
$GPGSV,3,1,12,23,56,170,,17,47,113,,21,47,259,,15,43,210,*74
$GPGSV,3,2,12,29,33,342,,3,32,230,,6,23,21,,26,14,140,*46
$GPGSV,3,3,12,9,12,87,,22,10,287,,28,8,255,,31,,215,*47
$GPAPB,,,,,,,,,,,,,,*44
$GPGLL,7811.0931,N,1300.2441,E,042110,V*24
$GPRMB,,,,,,,,,,,,,*66
$GPRMC,042110,V,2721.0241,S,15303.2849,E,0.0,188.0,261100,11.3,E*4E
$GPGGA,042110,2721.0241,S,15303.2849,E,0,0,0.80,0,M,,,,*1F
$GPGSA,A,1,,,,,,,,,,,,,1.69,0.80,1.49*0A
$GPGSV,3,1,12,23,56,170,,17,47,113,,21,47,259,,15,43,210,*74
$GPGSV,3,2,12,29,33,342,,3,32,230,,6,23,21,,26,14,140,*46
$GPGSV,3,3,12,9,12,87,,22,10,287,,28,8,255,,31,,215,*47
$GPAPB,,,,,,,,,,,,,,*44
$GPGLL,6791.9724,S,4428.0081,W,042111,V*25
$GPRMB,,,,,,,,,,,,,*66
$GPRMC,042111,V,2721.0241,S,15303.2849,E,0.0,188.0,261100,11.3,E*4F
$GPGGA,042111,2721.0241,S,15303.2849,E,0,0,0.80,0,M,,,,*1E
$GPGSA,A,1,,,,,,,,,,,,,1.69,0.80,1.49*0A
$GPGSV,3,1,12,23,56,170,,17,47,113,,21,47,259,,15,43,210,*74
$GPGSV,3,2,12,29,33,342,,3,32,230,,6,23,21,,26,14,140,*46
$GPGSV,3,3,12,9,12,87,,22,10,287,,28,8,255,,31,,215,*47
$GPAPB,,,,,,,,,,,,,,*44
$GPGLL,1190.6785,N,2980.6578,W,042112,V*26
$GPRMB,,,,,,,,,,,,,*66
$GPRMC,042112,V,2721.0241,S,15303.2849,E,0.0,188.0,261100,11.3,E*4C
$GPGGA,042112,2721.0241,S,15303.2849,E,0,0,0.80,0,M,,,,*1D
$GPGSA,A,1,,,,,,,,,,,,,1.69,0.80,1.49*0A
$GPGSV,3,1,12,23,56,170,,17,47,113,,21,47,259,,15,43,210,*74
$GPGSV,3,2,12,29,33,342,,3,32,230,,6,23,21,,26,14,140,*46
$GPGSV,3,3,12,9,12,87,,22,10,287,,28,8,255,,31,,215,*47
$GPAPB,,,,,,,,,,,,,,*44
$GPGLL,4577.9011,S,2323.9981,W,042113,V*27
$GPRMB,,,,,,,,,,,,,*66
$GPRMC,042113,V,2721.0241,S,15303.2849,E,0.0,188.0,261100,11.3,E*4D
$GPGGA,042113,2721.0241,S,15303.2849,E,0,0,0.80,0,M,,,,*1C
$GPGSA,A,1,,,,,,,,,,,,,1.69,0.80,1.49*0A
$GPGSV,3,1,12,23,56,170,,17,47,113,,21,47,259,,15,43,210,*74
$GPGSV,3,2,12,29,33,342,,3,32,230,,6,23,21,,26,14,140,*46
$GPGSV,3,3,12,9,12,87,,22,10,287,,28,8,255,,31,,215,*47
$GPAPB,,,,,,,,,,,,,,*44
$GPGLL,1997.4462,N,5309.6779,E,042114,V*20
$GPRMB,,,,,,,,,,,,,*66
$GPRMC,042114,V,2721.0241,S,15303.2849,E,0.0,188.0,261100,11.3,E*4A
$GPGGA,042114,2721.0241,S,15303.2849,E,0,0,0.80,0,M,,,,*1B
$GPGSA,A,1,,,,,,,,,,,,,1.69,0.80,1.49*0A
$GPGSV,3,1,12,23,56,170,,17,47,113,,21,47,259,,15,43,210,*74
$GPGSV,3,2,12,29,33,342,,3,32,230,,6,23,21,,26,14,140,*46
$GPGSV,3,3,12,9,12,87,,22,10,287,,28,8,255,,31,,215,*47
$GPAPB,,,,,,,,,,,,,,*44
$GPGLL,0392.8822,S,6610.0043,E,042115,V*21
$GPRMB,,,,,,,,,,,,,*66
$GPRMC,042115,V,2721.0241,S,15303.2849,E,0.0,188.0,261100,11.3,E*4B
$GPGGA,042115,2721.0241,S,15303.2849,E,0,0,0.80,0,M,,,,*1A
$GPGSA,A,1,,,,,,,,,,,,,1.69,0.80,1.49*0A
$GPGSV,3,1,12,23,56,170,,17,47,113,,21,47,259,,15,43,210,*74
$GPGSV,3,2,12,29,33,342,,3,32,230,,6,23,21,,26,14,140,*46
$GPGSV,3,3,12,9,12,87,,22,10,287,,28,8,255,,31,,215,*47
$GPAPB,,,,,,,,,,,,,,*44
$GPGLL,3249.5539,S,4889.0776,W,042116,V*22
$GPRMB,,,,,,,,,,,,,*66
$GPRMC,042116,V,2721.0241,S,15303.2849,E,0.0,188.0,261100,11.3,E*48
$GPGGA,042116,2721.0241,S,15303.2849,E,0,0,0.80,0,M,,,,*19
$GPGSA,A,1,,,,,,,,,,,,,1.69,0.80,1.49*0A
$GPGSV,3,1,12,23,56,170,,17,47,113,,21,47,259,,15,43,210,*74
$GPGSV,3,2,12,29,33,342,,3,32,230,,6,23,21,,26,14,140,*46
$GPGSV,3,3,12,9,12,87,,22,10,287,,28,8,255,,31,,215,*47
$GPAPB,,,,,,,,,,,,,,*44
$GPGLL,2721.0256,N,1109.7865,E,042117,V*2A
$GPRMB,,,,,,,,,,,,,*66
$GPRMC,042117,V,2721.0256,S,15303.2846,E,5.4,188.0,261100,11.3,E*41
$GPGGA,042117,2721.0256,S,15303.2846,E,0,0,0.80,0,M,,,,*11
$GPGSA,A,1,,,,,,,,,,,,,1.69,0.80,1.49*0A
$GPGSV,3,1,12,23,56,170,,17,47,113,,21,47,259,,15,43,210,*74
$GPGSV,3,2,12,29,33,342,,3,32,230,,6,23,21,,26,14,140,*46
$GPGSV,3,3,12,9,12,87,,22,10,287,,28,8,255,,31,,215,*47
$GPAPB,,,,,,,,,,,,,,*44
$GPGLL,6577.2001,S,1239.8790,E,042118,V*25
$GPRMB,,,,,,,,,,,,,*66
$GPRMC,042118,V,2721.0256,S,15303.2846,E,5.4,188.0,261100,11.3,E*4E
$GPGGA,042118,2721.0256,S,15303.2846,E,0,0,0.80,0,M,,,,*1E
$GPGSA,A,1,,,,,,,,,,,,,1.69,0.80,1.49*0A
$GPGSV,3,1,12,23,56,170,,17,47,113,,21,47,259,,15,43,210,*74
$GPGSV,3,2,12,29,33,342,,3,32,230,,6,23,21,,26,14,140,*46
$GPGSV,3,3,12,9,12,87,,22,10,287,,28,8,255,,31,,215,*47
$GPAPB,,,,,,,,,,,,,,*44
$GPGLL,5501.7443,N,5303.2844,E,042119,V*23
$GPRMB,,,,,,,,,,,,,*66
$GPRMC,042119,V,2721.0271,S,15303.2844,E,5.4,188.0,261100,11.3,E*48
$GPGGA,042119,2721.0271,S,15303.2844,E,0,0,0.80,0,M,,,,*18
$GPGSA,A,1,,,,,,,,,,,,,1.69,0.80,1.49*0A
$GPGSV,3,1,12,23,56,170,,17,47,113,,21,47,259,,15,43,210,*74
$GPGSV,3,2,12,29,33,342,,3,32,230,,6,23,21,,26,14,140,*46
$GPGSV,3,3,12,9,12,87,,22,10,287,,28,8,255,,31,,215,*47
$GPAPB,,,,,,,,,,,,,,*44
$GPGLL,2721.0300,N,2314.2154,W,042120,V*24
$GPRMB,,,,,,,,,,,,,*66
$GPRMC,042120,V,2721.0300,S,15303.2839,E,10.8,188.0,261100,11.3,E*77
$GPGGA,042120,2721.0300,S,15303.2839,E,0,0,0.80,0,M,,,,*1F
$GPGSA,A,1,,,,,,,,,,,,,1.69,0.80,1.49*0A
$GPGSV,3,1,12,23,56,170,,17,47,113,,21,47,259,,15,43,210,*74
$GPGSV,3,2,12,29,33,342,,3,32,230,,6,23,21,,26,14,140,*46
$GPGSV,3,3,12,9,12,87,,22,10,287,,28,8,255,,31,,215,*47
$GPAPB,,,,,,,,,,,,,,*44
$GPGLL,0198.7799,S,2956.6924,W,042121,V*2F
$GPRMB,,,,,,,,,,,,,*66
$GPRMC,042121,V,2721.0345,S,15303.2832,E,16.2,188.0,261100,11.3,E*70
$GPGGA,042121,2721.0345,S,15303.2832,E,0,0,0.80,0,M,,,,*14
$GPGSA,A,1,,,,,,,,,,,,,1.69,0.80,1.49*0A
$GPGSV,3,1,12,23,56,170,,17,47,113,,21,47,259,,15,43,210,*74
$GPGSV,3,2,12,29,33,342,,3,32,230,,6,23,21,,26,14,140,*46
$GPGSV,3,3,12,9,12,87,,22,10,287,,28,8,255,,31,,215,*47
$GPAPB,,,,,,,,,,,,,,*44
$GPGLL,8422.0902,N,0322.2825,E,042122,V*22
$GPRMB,,,,,,,,,,,,,*66
$GPRMC,042122,V,2721.0390,S,15303.2825,E,16.2,188.0,261100,11.3,E*7D
$GPGGA,042122,2721.0390,S,15303.2825,E,0,0,0.80,0,M,,,,*19
$GPGSA,A,1,,,,,,,,,,,,,1.69,0.80,1.49*0A
$GPGSV,3,1,12,23,56,170,,17,47,113,,21,47,259,,15,43,210,*74
$GPGSV,3,2,12,29,33,342,,3,32,230,,6,23,21,,26,14,140,*46
$GPGSV,3,3,12,9,12,87,,22,10,287,,28,8,255,,31,,215,*47
$GPAPB,,,,,,,,,,,,,,*44
$GPGLL,6664.0434,S,8787.2816,E,042123,V*2A
$GPRMB,,,,,,,,,,,,,*66
$GPRMC,042123,V,2721.0434,S,15303.2816,E,16.2,190.0,261100,11.3,E*7C
$GPGGA,042123,2721.0434,S,15303.2816,E,0,0,0.80,0,M,,,,*11
$GPGSA,A,1,,,,,,,,,,,,,1.69,0.80,1.49*0A
$GPGSV,3,1,12,23,56,170,,17,47,113,,21,47,259,,15,43,210,*74
$GPGSV,3,2,12,29,33,342,,3,32,230,,6,23,21,,26,14,140,*46
$GPGSV,3,3,12,9,12,87,,22,10,287,,28,8,255,,31,,215,*47
$GPAPB,,,,,,,,,,,,,,*44
$GPGLL,2721.0522,S,5879.1154,W,042124,V*2C
$GPRMB,,,,,,,,,,,,,*66
$GPRMC,042124,V,2721.0522,S,15303.2796,E,16.2,192.0,261100,11.3,E*78
$GPGGA,042124,2721.0522,S,15303.2796,E,0,0,0.80,0,M,,,,*17
$GPGSA,A,1,,,,,,,,,,,,,1.69,0.80,1.49*0A
$GPGSV,3,1,12,23,56,170,,17,47,113,,21,47,259,,15,43,210,*74
$GPGSV,3,2,12,29,33,342,,3,32,230,,6,23,21,,26,14,140,*46
$GPGSV,3,3,12,9,12,87,,22,10,287,,28,8,255,,31,,215,*47
$GPAPB,,,,,,,,,,,,,,*44
$GPGLL,3929.0566,S,2008.2785,E,042125,V*2F
$GPRMB,,,,,,,,,,,,,*66
$GPRMC,042125,V,2721.0566,S,15303.2785,E,16.2,193.0,261100,11.3,E*7A
$GPGGA,042125,2721.0566,S,15303.2785,E,0,0,0.80,0,M,,,,*14
$GPGSA,A,1,,,,,,,,,,,,,1.69,0.80,1.49*0A
$GPGSV,3,1,12,23,56,170,,17,47,113,,21,47,259,,15,43,210,*74
$GPGSV,3,2,12,29,33,342,,3,32,230,,6,23,21,,26,14,140,*46
$GPGSV,3,3,12,9,12,87,,22,10,287,,28,8,255,,31,,215,*47
$GPAPB,,,,,,,,,,,,,,*44
$GPGLL,2721.0610,S,1503.2773,E,042126,V*27
$GPRMB,,,,,,,,,,,,,*66
$GPRMC,042126,V,2721.0610,S,15303.2773,E,16.2,193.0,261100,11.3,E*72
$GPGGA,042126,2721.0610,S,15303.2773,E,0,0,0.80,0,M,,,,*1C
$GPGSA,A,1,,,,,,,,,,,,,1.69,0.80,1.49*0A
$GPGSV,3,1,12,23,56,170,,17,47,113,,21,47,259,,15,43,210,*74
$GPGSV,3,2,12,29,33,342,,3,32,230,,6,23,21,,26,14,140,*46
$GPGSV,3,3,12,9,12,87,,22,10,287,,28,8,255,,31,,215,*47
$GPAPB,,,,,,,,,,,,,,*44
$GPGLL,4024.0610,N,7723.2773,E,042127,V*26
$GPRMB,,,,,,,,,,,,,*66
$GPRMC,042127,V,2721.0610,S,15303.2773,E,16.2,193.0,261100,11.3,E*73
$GPGGA,042127,2721.0610,S,15303.2773,E,0,0,0.80,0,M,,,,*1D
$GPGSA,A,1,,,,,,,,,,,,,1.69,0.80,1.49*0A
$GPGSV,3,1,12,23,56,170,,17,47,113,,21,47,259,,15,43,210,*74
$GPGSV,3,2,12,29,33,342,,3,32,230,,6,23,21,,26,14,140,*46
$GPGSV,3,3,12,9,12,87,,22,10,287,,28,8,255,,31,,215,*47
$GPAPB,,,,,,,,,,,,,,*44
$GPGLL,2729.0654,N,3338.2760,W,042128,V*2B
$GPRMB,,,,,,,,,,,,,*66
$GPRMC,042128,V,2721.0654,S,15303.2760,E,16.2,195.0,261100,11.3,E*78
$GPGGA,042128,2721.0654,S,15303.2760,E,0,0,0.80,0,M,,,,*10
$GPGSA,A,1,,,,,,,,,,,,,1.69,0.80,1.49*0A
$GPGSV,3,1,12,23,56,170,,17,47,113,,21,47,259,,15,43,210,*74
$GPGSV,3,2,12,29,33,342,,3,32,230,,6,23,21,,26,14,140,*46
$GPGSV,3,3,12,9,12,87,,22,10,287,,28,8,255,,31,,215,*47
$GPAPB,,,,,,,,,,,,,,*44
$GPGLL,7021.0697,N,9001.2747,E,042129,V*20
$GPRMB,,,,,,,,,,,,,*66
$GPRMC,042129,V,2721.0697,S,15303.2747,E,16.2,195.0,261100,11.3,E*73
$GPGGA,042129,2721.0697,S,15303.2747,E,0,0,0.80,0,M,,,,*1B
$GPGSA,A,1,,,,,,,,,,,,,1.69,0.80,1.49*0A
$GPGSV,3,1,12,23,56,170,,17,47,113,,21,47,259,,15,43,210,*74
$GPGSV,3,2,12,29,33,342,,3,32,230,,6,23,21,,26,14,140,*46
$GPGSV,3,3,12,9,12,87,,22,10,287,,28,8,255,,31,,215,*47
$GPAPB,,,,,,,,,,,,,,*44
$GPGLL,1272.0345,S,2289.2734,E,042130,V*26
